{"type":"FeatureCollection","features":[{"type":"Feature","geometry":{"type":"Point","coordinates":[10.1868415207169,53.4936703]},"properties":{"marker-symbol":"college","name":"Stadtteilschule Bergedorf","address":"Ladenbeker Weg 13, 21033 Hamburg"}},{"type":"Feature","geometry":{"type":"Point","coordinates":[10.2211708,53.5051523]},"properties":{"marker-symbol":"college","name":"Stadtteilschule Lohbrügge","address":"Binnenfeldredder 7, 21031 Hamburg"}},{"type":"Feature","geometry":{"type":"Point","coordinates":[10.2211708,53.5051523]},"properties":{"marker-symbol":"college","name":"Gymnasium Lohbrügge","address":"Binnenfeldredder 5, 21031 Hamburg"}},{"type":"Feature","geometry":{"type":"Point","coordinates":[10.2201233366882,53.49337595]},"properties":{"marker-symbol":"college","name":"Hansa-Gymnasium Bergedorf","address":"Hermann-Distel-Straße 25, 21029 Hamburg"}},{"type":"Feature","geometry":{"type":"Point","coordinates":[10.2040944506638,53.4210722]},"properties":{"marker-symbol":"college","name":"Stadtteilschule Kirchwerder","address":"Kirchwerder Hausdeich 341, 21037 Hamburg"}},{"type":"Feature","geometry":{"type":"Point","coordinates":[10.1675540691437,53.48691555]},"properties":{"marker-symbol":"college","name":"Gretel-Bergmann-Schule","address":"Margit-Zinke-Straße 7, 21035 Hamburg"}},{"type":"Feature","geometry":{"type":"Point","coordinates":[10.154091703515,53.4854923]},"properties":{"marker-symbol":"college","name":"Gymnasium Allermöhe","address":"Walter-Rothenburg-Weg 41, 21035 Hamburg"}},{"type":"Feature","geometry":{"type":"Point","coordinates":[9.9736281603705,53.4608536]},"properties":{"marker-symbol":"college","name":"Goethe-Schule-Harburg","address":"Eißendorfer Straße 26, 21073 Hamburg"}},{"type":"Feature","geometry":{"type":"Point","coordinates":[9.9817886,53.4535129]},"properties":{"marker-symbol":"college","name":"Stadtteilschule Maretstraße","address":"Maretstraße 50, 21073 Hamburg"}},{"type":"Feature","geometry":{"type":"Point","coordinates":[9.99244322683191,53.4388323]},"properties":{"marker-symbol":"college","name":"Alexander-von-Humboldt-Gymnasium","address":"Rönneburger Straße 50, 21079 Hamburg"}},{"type":"Feature","geometry":{"type":"Point","coordinates":[9.96757594285727,53.43133155]},"properties":{"marker-symbol":"college","name":"Immanuel-Kant-Gymnasium","address":"Am Pavillon 15, 21077 Hamburg"}},{"type":"Feature","geometry":{"type":"Point","coordinates":[9.94396188857286,53.4567494]},"properties":{"marker-symbol":"college","name":"Heisenberg-Gymnasium","address":"Triftstraße 43, 21075 Hamburg"}},{"type":"Feature","geometry":{"type":"Point","coordinates":[9.9635503,53.465237]},"properties":{"marker-symbol":"college","name":"Friedrich-Ebert-Gymnasium","address":"Alter Postweg 30, 21075 Hamburg"}},{"type":"Feature","geometry":{"type":"Point","coordinates":[9.83735547801779,53.47392845]},"properties":{"marker-symbol":"college","name":"Stadtteilschule Fischbek-Falkenberg","address":"Fischbeker Moor 6, 21149 Hamburg"}},{"type":"Feature","geometry":{"type":"Point","coordinates":[9.8665931,53.477334]},"properties":{"marker-symbol":"college","name":"Stadtteilschule Süderelbe","address":"Neumoorstück 1, 21147 Hamburg"}},{"type":"Feature","geometry":{"type":"Point","coordinates":[9.86483097960921,53.47011955]},"properties":{"marker-symbol":"college","name":"Gymnasium Süderelbe","address":"Falkenbergsweg 5, 21149 Hamburg"}},{"type":"Feature","geometry":{"type":"Point","coordinates":[9.9461864,53.5667106]},"properties":{"marker-symbol":"college","name":"Kurt-Tucholsky-Schule","address":"Eckernförder Straße 70, 22769 Hamburg"}},{"type":"Feature","geometry":{"type":"Point","coordinates":[9.940932,53.5548664]},"properties":{"marker-symbol":"college","name":"Gymnasium Allee","address":"Max-Brauer-Allee 83, 22765 Hamburg"}},{"type":"Feature","geometry":{"type":"Point","coordinates":[9.91601096776722,53.5517734]},"properties":{"marker-symbol":"college","name":"Gymnasium Altona","address":"Hohenzollernring 57, 22763 Hamburg"}},{"type":"Feature","geometry":{"type":"Point","coordinates":[9.9066632,53.56656]},"properties":{"marker-symbol":"college","name":"Stadtteilschule Bahrenfeld","address":"Regerstraße 21, 22761 Hamburg"}},{"type":"Feature","geometry":{"type":"Point","coordinates":[9.92257489843811,53.5609144]},"properties":{"marker-symbol":"college","name":"Max-Brauer-Schule","address":"Bei der Paul-Gerhardt-Kirche 1, 22761 Hamburg"}},{"type":"Feature","geometry":{"type":"Point","coordinates":[9.87329042520247,53.55770235]},"properties":{"marker-symbol":"college","name":"Christianeum","address":"Otto-Ernst-Straße 34, 22605 Hamburg"}},{"type":"Feature","geometry":{"type":"Point","coordinates":[9.87607736037799,53.55441685]},"properties":{"marker-symbol":"college","name":"Gymnasium Hochrad","address":"Hochrad 2, 22605 Hamburg"}},{"type":"Feature","geometry":{"type":"Point","coordinates":[9.88347138935614,53.55390745]},"properties":{"marker-symbol":"college","name":"Gymnasium Othmarschen","address":"Walderseestraße 99, 22605 Hamburg"}},{"type":"Feature","geometry":{"type":"Point","coordinates":[9.8553722,53.5901241]},"properties":{"marker-symbol":"college","name":"Geschwister Scholl-Stadtteilschule","address":"Böttcherkamp 181, 22549 Hamburg"}},{"type":"Feature","geometry":{"type":"Point","coordinates":[9.87307483334587,53.59064405]},"properties":{"marker-symbol":"college","name":"Stadtteilschule Lurup","address":"Luruper Hauptstraße 131, 22547 Hamburg"}},{"type":"Feature","geometry":{"type":"Point","coordinates":[9.82229661332253,53.5638631]},"properties":{"marker-symbol":"college","name":"Stadtteilschule Blankenese","address":"Frahmstraße 15, 22587 Hamburg"}},{"type":"Feature","geometry":{"type":"Point","coordinates":[9.80771110721316,53.5630085]},"properties":{"marker-symbol":"college","name":"Gymnasium Blankenese","address":"Oesterleystraße 27, 22587 Hamburg"}},{"type":"Feature","geometry":{"type":"Point","coordinates":[9.80554132483248,53.57151555]},"properties":{"marker-symbol":"college","name":"Marion-Dönhoff-Gymnasium","address":"Willhöden 74, 22587 Hamburg"}},{"type":"Feature","geometry":{"type":"Point","coordinates":[9.75206402593978,53.5797394]},"properties":{"marker-symbol":"college","name":"Stadtteilschule Rissen","address":"Voßhagen 15, 22559 Hamburg"}},{"type":"Feature","geometry":{"type":"Point","coordinates":[9.96649068428836,53.5732082]},"properties":{"marker-symbol":"college","name":"Gymnasium-Kaiser-Friedrich-Ufer","address":"Kaiser-Friedrich-Ufer 6, 20259 Hamburg"}},{"type":"Feature","geometry":{"type":"Point","coordinates":[9.9632367,53.5826985]},"properties":{"marker-symbol":"college","name":"Gymnasium Hoheluft","address":"Christian-Förster-Straße 19, 20253 Hamburg"}},{"type":"Feature","geometry":{"type":"Point","coordinates":[9.97460823294706,53.57461785]},"properties":{"marker-symbol":"college","name":"Ida-Ehre-Schule","address":"Bogenstraße 36, 20144 Hamburg"}},{"type":"Feature","geometry":{"type":"Point","coordinates":[9.97518781717755,53.5737976]},"properties":{"marker-symbol":"college","name":"Helene Lange Gymnasium","address":"Bogenstraße 32, 20144 Hamburg"}},{"type":"Feature","geometry":{"type":"Point","coordinates":[9.9960799130267,53.5744605]},"properties":{"marker-symbol":"college","name":"Wilhelm-Gymnasium","address":"Klosterstieg 17, 20149 Hamburg"}},{"type":"Feature","geometry":{"type":"Point","coordinates":[9.97041127137494,53.5962736]},"properties":{"marker-symbol":"college","name":"Gymnasium Corveystraße","address":"Corveystraße 6, 22529 Hamburg"}},{"type":"Feature","geometry":{"type":"Point","coordinates":[9.95219275572288,53.63324565]},"properties":{"marker-symbol":"college","name":"Stadtteilschule Niendorf","address":"Paul-Sorge-Straße 133, 22455 Hamburg"}},{"type":"Feature","geometry":{"type":"Point","coordinates":[9.93867044357095,53.62237685]},"properties":{"marker-symbol":"college","name":"Gymnasium Bondenwald","address":"Bondenwald 14, 22453 Hamburg"}},{"type":"Feature","geometry":{"type":"Point","coordinates":[9.96136441171474,53.6418007]},"properties":{"marker-symbol":"college","name":"Gymnasium Ohmoor","address":"Sachsenweg 76, 22455 Hamburg"}},{"type":"Feature","geometry":{"type":"Point","coordinates":[9.88757384046553,53.61265465]},"properties":{"marker-symbol":"college","name":"Stadtteilschule Eidelstedt","address":"Lohkampstraße 145, 22523 Hamburg"}},{"type":"Feature","geometry":{"type":"Point","coordinates":[9.9130038171718,53.60840385]},"properties":{"marker-symbol":"college","name":"Gymnasium Dörpsweg","address":"Dörpsweg 10, 22527 Hamburg"}},{"type":"Feature","geometry":{"type":"Point","coordinates":[9.94146266808313,53.5853881]},"properties":{"marker-symbol":"college","name":"Stadtteilschule Stellingen","address":"Brehmweg 60, 22527 Hamburg"}},{"type":"Feature","geometry":{"type":"Point","coordinates":[9.92431739126661,53.60072415]},"properties":{"marker-symbol":"college","name":"Albrecht-Thaer-Gymnasium","address":"Wegenkamp 3, 22527 Hamburg"}},{"type":"Feature","geometry":{"type":"Point","coordinates":[9.97411371798757,53.5872087]},"properties":{"marker-symbol":"college","name":"Stadtteilschule Eppendorf","address":"Löwenstraße 58, 20251 Hamburg"}},{"type":"Feature","geometry":{"type":"Point","coordinates":[9.98412252658462,53.58529905]},"properties":{"marker-symbol":"college","name":"Gymnasium Eppendorf","address":"Hegestraße 35, 20249 Hamburg"}},{"type":"Feature","geometry":{"type":"Point","coordinates":[9.99928582469743,53.6057647]},"properties":{"marker-symbol":"college","name":"Heilwig Gymnasium","address":"Wilhelm-Metzger-Straße 4, 22297 Hamburg"}},{"type":"Feature","geometry":{"type":"Point","coordinates":[10.0113383886028,53.5920949]},"properties":{"marker-symbol":"college","name":"Heinrich-Hertz-Schule","address":"Grasweg 72, 22303 Hamburg"}},{"type":"Feature","geometry":{"type":"Point","coordinates":[10.0267985,53.5868476]},"properties":{"marker-symbol":"college","name":"Stadtteilschule Winterhude","address":"Meerweinstraße 26, 22303 Hamburg"}},{"type":"Feature","geometry":{"type":"Point","coordinates":[10.0069378,53.5897608]},"properties":{"marker-symbol":"college","name":"Gelehrtenschule des Johanneums","address":"Maria-Louisen-Straße 114, 22301 Hamburg"}},{"type":"Feature","geometry":{"type":"Point","coordinates":[10.0299980540368,53.5690202]},"properties":{"marker-symbol":"college","name":"Gymnasium Lerchenfeld","address":"Lerchenfeld 10, 22081 Hamburg"}},{"type":"Feature","geometry":{"type":"Point","coordinates":[10.0219335309974,53.57635495]},"properties":{"marker-symbol":"college","name":"Ilse-Löwenstein-Schule","address":"Humboldtstraße 89, 22083 Hamburg"}},{"type":"Feature","geometry":{"type":"Point","coordinates":[10.0698685,53.587521]},"properties":{"marker-symbol":"college","name":"Stadtteilschule Alter Teichweg","address":"Alter Teichweg 200, 22049 Hamburg"}},{"type":"Feature","geometry":{"type":"Point","coordinates":[10.0472700151074,53.60111665]},"properties":{"marker-symbol":"college","name":"Stadtteilschule Helmuth Hübener (ehemals STS Benzenbergweg)","address":"Benzenbergweg 2, 22307 Hamburg"}},{"type":"Feature","geometry":{"type":"Point","coordinates":[10.0574531551425,53.58092095]},"properties":{"marker-symbol":"college","name":"Stadtteilschule Barmbek: Emil-Krause Gymn./Schule Fraenkelstr./Schule Tieloh","address":"Krausestraße 53, 22049 Hamburg"}},{"type":"Feature","geometry":{"type":"Point","coordinates":[10.0312153876841,53.6282038]},"properties":{"marker-symbol":"college","name":"Albert-Schweitzer-Gymnasium","address":"Struckholt 27, 22337 Hamburg"}},{"type":"Feature","geometry":{"type":"Point","coordinates":[10.0330184377601,53.67037545]},"properties":{"marker-symbol":"college","name":"Gymnasium Heidberg","address":"Fritz-Schumacher-Allee 200, 22417 Hamburg"}},{"type":"Feature","geometry":{"type":"Point","coordinates":[10.0727727962044,53.57314585]},"properties":{"marker-symbol":"college","name":"Matthias-Claudius-Gymnasium","address":"Witthöfftstraße 8, 22041 Hamburg"}},{"type":"Feature","geometry":{"type":"Point","coordinates":[10.1323775481642,53.5718672]},"properties":{"marker-symbol":"college","name":"Max-Schmeling-Stadtteilschule","address":"Denksteinweg 17, 22043 Hamburg"}},{"type":"Feature","geometry":{"type":"Point","coordinates":[10.1200266366775,53.61365765]},"properties":{"marker-symbol":"college","name":"Erich Kästner-Schule","address":"Hermelinweg 10, 22159 Hamburg"}},{"type":"Feature","geometry":{"type":"Point","coordinates":[10.0938893824639,53.6013807]},"properties":{"marker-symbol":"college","name":"Gymnasium Osterbek","address":"Turnierstieg 24, 22179 Hamburg"}},{"type":"Feature","geometry":{"type":"Point","coordinates":[10.062267650268,53.61786165]},"properties":{"marker-symbol":"college","name":"Stadtteilschule Am See","address":"Borchertring 38, 22309 Hamburg"}},{"type":"Feature","geometry":{"type":"Point","coordinates":[10.1014259933493,53.6592036]},"properties":{"marker-symbol":"college","name":"Gymnasium Oberalster","address":"Alsterredder 26, 22395 Hamburg"}},{"type":"Feature","geometry":{"type":"Point","coordinates":[10.0813184,53.6570216]},"properties":{"marker-symbol":"college","name":"Stadtteilschule Poppenbüttel","address":"Schulbergredder 13, 22399 Hamburg"}},{"type":"Feature","geometry":{"type":"Point","coordinates":[10.0683730599726,53.65452585]},"properties":{"marker-symbol":"college","name":"Carl-von-Ossietzky-Gymnasium","address":"Müssenredder 59, 22399 Hamburg"}},{"type":"Feature","geometry":{"type":"Point","coordinates":[10.0749880425877,53.6650222]},"properties":{"marker-symbol":"college","name":"Heinrich-Heine-Gymnasium","address":"Harksheider Straße 70, 22399 Hamburg"}},{"type":"Feature","geometry":{"type":"Point","coordinates":[10.0396931,53.6460106]},"properties":{"marker-symbol":"college","name":"Gymnasium Hummelsbüttel","address":"Hummelsbüttler Hauptstraße 107, 22339 Hamburg"}},{"type":"Feature","geometry":{"type":"Point","coordinates":[10.1419578013396,53.6937814]},"properties":{"marker-symbol":"college","name":"Gymnasium Ohlstedt","address":"Sthamerstraße 55, 22397 Hamburg"}},{"type":"Feature","geometry":{"type":"Point","coordinates":[10.1370195781655,53.67126235]},"properties":{"marker-symbol":"college","name":"Stadtteilschule Bergstedt","address":"Volksdorfer Damm 218, 22395 Hamburg"}},{"type":"Feature","geometry":{"type":"Point","coordinates":[10.17427615,53.65327245]},"properties":{"marker-symbol":"college","name":"Stadtteilschule Walddörfer","address":"Ahrensburger Weg 30, 22359 Hamburg"}},{"type":"Feature","geometry":{"type":"Point","coordinates":[10.1504478152743,53.66525305]},"properties":{"marker-symbol":"college","name":"Gymnasium Buckhorn","address":"Im Regestall 25, 22359 Hamburg"}},{"type":"Feature","geometry":{"type":"Point","coordinates":[10.1742219576516,53.652109]},"properties":{"marker-symbol":"college","name":"Walddörfer Gymnasium","address":"Im Allhorn 45, 22359 Hamburg"}},{"type":"Feature","geometry":{"type":"Point","coordinates":[10.1528597,53.5937291]},"properties":{"marker-symbol":"college","name":"Stadtteilschule Altrahlstedt","address":"Am Friedhof 14, 22149 Hamburg"}},{"type":"Feature","geometry":{"type":"Point","coordinates":[10.1630158049582,53.6291194]},"properties":{"marker-symbol":"college","name":"Stadtteilschule Meiendorf","address":"Deepenhorn 1, 22145 Hamburg"}},{"type":"Feature","geometry":{"type":"Point","coordinates":[10.1503993295074,53.62378455]},"properties":{"marker-symbol":"college","name":"Gymnasium Meiendorf","address":"Schierenberg 60, 22145 Hamburg"}},{"type":"Feature","geometry":{"type":"Point","coordinates":[10.1595332029441,53.61137755]},"properties":{"marker-symbol":"college","name":"Gymnasium Oldenfelde","address":"Birrenkovenallee 12, 22143 Hamburg"}},{"type":"Feature","geometry":{"type":"Point","coordinates":[10.1462144034505,53.60151055]},"properties":{"marker-symbol":"college","name":"Gymnasium Rahlstedt","address":"Scharbeutzer Straße 36, 22147 Hamburg"}},{"type":"Feature","geometry":{"type":"Point","coordinates":[10.0458557175594,53.5541598]},"properties":{"marker-symbol":"college","name":"Gymnasium Hamm","address":"Ebelingplatz 8, 20537 Hamburg"}},{"type":"Feature","geometry":{"type":"Point","coordinates":[10.0733290860841,53.55654415]},"properties":{"marker-symbol":"college","name":"Stadtteilschule Horn","address":"Snitgerreihe 2, 22111 Hamburg"}},{"type":"Feature","geometry":{"type":"Point","coordinates":[10.1037614792698,53.5562177]},"properties":{"marker-symbol":"college","name":"Brüder-Grimm-Schule","address":"Querkamp 68, 22119 Hamburg"}},{"type":"Feature","geometry":{"type":"Point","coordinates":[10.1487143429302,53.53133465]},"properties":{"marker-symbol":"college","name":"Stadtteilschule Mümmelmannsberg","address":"Mümmelmannsberg 75, 22115 Hamburg"}},{"type":"Feature","geometry":{"type":"Point","coordinates":[10.1298402345243,53.541762]},"properties":{"marker-symbol":"college","name":"Stadtteilschule Öjendorf","address":"Öjendorfer Höhe 12, 22117 Hamburg"}},{"type":"Feature","geometry":{"type":"Point","coordinates":[10.1210067882459,53.5416341]},"properties":{"marker-symbol":"college","name":"Kurt-Körber-Gymnasium","address":"Pergamentweg 1, 22117 Hamburg"}},{"type":"Feature","geometry":{"type":"Point","coordinates":[10.0194087186423,53.5267099]},"properties":{"marker-symbol":"college","name":"Schule Auf der Veddel","address":"Slomanstieg 1, 20539 Hamburg"}},{"type":"Feature","geometry":{"type":"Point","coordinates":[10.0140865189586,53.49376415]},"properties":{"marker-symbol":"college","name":"Nelson-Mandela-Schule","address":"Neuenfelder Straße 106, 21109 Hamburg"}},{"type":"Feature","geometry":{"type":"Point","coordinates":[9.9899609402844,53.5061237]},"properties":{"marker-symbol":"college","name":"Stadtteilschule Wilhelmsburg","address":"Rotenhäuser Straße 67, 21107 Hamburg"}},{"type":"Feature","geometry":{"type":"Point","coordinates":[10.0153937029652,53.483296]},"properties":{"marker-symbol":"college","name":"Stadtteilschule Stübenhofer Weg","address":"Stübenhofer Weg 20, 21109 Hamburg"}},{"type":"Feature","geometry":{"type":"Point","coordinates":[10.0147991699996,53.4993292]},"properties":{"marker-symbol":"college","name":"Helmut-Schmidt-Gymnasium","address":"Krieterstraße 5, 21109 Hamburg"}},{"type":"Feature","geometry":{"type":"Point","coordinates":[9.87553639148121,53.53177595]},"properties":{"marker-symbol":"college","name":"Stadtteilschule Finkenwerder","address":"Norderschulweg 14, 21129 Hamburg"}},{"type":"Feature","geometry":{"type":"Point","coordinates":[9.87415317315417,53.53222465]},"properties":{"marker-symbol":"college","name":"Gymnasium Finkenwerder","address":"Norderschulweg 18, 21129 Hamburg"}}]}
